{"name":"Mama Tola's Original Amala","address":"15 Idumagbo Avenue, Lagos Island","city":"Lagos Island","geocoords":{"long":3.3792,"lat":6.4541},"metadata":{},"rating":4.7}
{"name":"Bukky's Kitchen","address":"23 Allen Avenue, Ikeja","city":"Ikeja","geocoords":{"long":3.3566,"lat":6.6018},"metadata":{},"rating":4.2}
{"name":"Iya Agba Amala Spot","address":"7 Ojuelegba Road, Surulere","city":"Surulere","geocoords":{"long":3.3515,"lat":6.5075},"metadata":{},"rating":4.8}
{"name":"Sunset Amala Palace","address":"12 Victoria Island Extension","city":"Victoria Island","geocoords":{"long":3.4298,"lat":6.4281},"metadata":{},"rating":4.5}
{"name":"Yaba Student Special","address":"45 Herbert Macaulay Way, Yaba","city":"Yaba","geocoords":{"long":3.3728,"lat":6.5158},"metadata":{},"rating":3.9}
{"name":"Aunty Kemi's Kitchen","address":"8 Adeniran Ogunsanya Street, Surulere","city":"Surulere","geocoords":{"long":3.3557,"lat":6.5044},"metadata":{},"rating":4.3}
{"name":"Lagos Island Heritage","address":"3 Broad Street, Lagos Island","city":"Lagos Island","geocoords":{"long":3.3952,"lat":6.4541},"metadata":{},"rating":4.6}
{"name":"Mainland Express","address":"29 Ikorodu Road, Maryland","city":"Maryland","geocoords":{"long":3.3669,"lat":6.5707},"metadata":{},"rating":4.1}
{"name":"Festac Community Kitchen","address":"16 2nd Avenue, Festac Town","city":"Festac","geocoords":{"long":3.2792,"lat":6.4637},"metadata":{},"rating":4.4}
{"name":"Lekki Phase 1 Deluxe","address":"5 Admiralty Way, Lekki Phase 1","city":"Lekki","geocoords":{"long":3.4716,"lat":6.4474},"metadata":{},"rating":4.9}
{"name":"Agege Authentic Corner","address":"12 Old Abeokuta Road, Agege","city":"Agege","geocoords":{"long":3.3276,"lat":6.6342},"metadata":{},"rating":3.8}
{"name":"Apapa Harbor View","address":"22 Wharf Road, Apapa","city":"Apapa","geocoords":{"long":3.3569,"lat":6.4395},"metadata":{},"rating":4.0}
